 [
      {
        "station_id": "2378",
        "route_id": "28",
        "station_order": "1",
        "station_name": "สถานีขนส่งอาเขต",
        "station_name_en": "",
        "station_name_cn": "",
        "lat": "18.8002259098",
        "lng": "99.0175317227"
      },
      {
        "station_id": "2379",
        "route_id": "28",
        "station_order": "2",
        "station_name": "ศูนย์ส่งเสริมอุตสาหกรรม",
        "station_name_en": "",
        "station_name_cn": "",
        "lat": "18.7924878011",
        "lng": "99.0178770572"
      },
      {
        "station_id": "2380",
        "route_id": "28",
        "station_order": "3",
        "station_name": "สถานีรถไฟ",
        "station_name_en": "",
        "station_name_cn": "",
        "lat": "18.7853695696",
        "lng": "99.0170573070"
      },
      {
        "station_id": "2381",
        "route_id": "28",
        "station_order": "4",
        "station_name": "สี่แยกหมอวงค์",
        "station_name_en": "",
        "station_name_cn": "",
        "lat": "18.7861919937",
        "lng": "99.0129788406"
      },
      {
        "station_id": "2382",
        "route_id": "28",
        "station_order": "5",
        "station_name": "ตลาดสันป่าข่อย",
        "station_name_en": "",
        "station_name_cn": "",
        "lat": "18.7868558657",
        "lng": "99.0094462875"
      },
      {
        "station_id": "2383",
        "route_id": "28",
        "station_order": "6",
        "station_name": "ธนาคารกรุงเทพ สาขาท่าแพ",
        "station_name_en": "",
        "station_name_cn": "",
        "lat": "18.7881654301",
        "lng": "98.9997594477"
      },
      {
        "station_id": "2384",
        "route_id": "28",
        "station_order": "7",
        "station_name": "วัดบุพผาราม",
        "station_name_en": "",
        "station_name_cn": "",
        "lat": "18.7883301268",
        "lng": "98.9982607425"
      },
      {
        "station_id": "2385",
        "route_id": "28",
        "station_order": "8",
        "station_name": "แมคโดนัลท่าแพ",
        "station_name_en": "",
        "station_name_cn": "",
        "lat": "18.7872443994",
        "lng": "98.9936490089"
      },
      {
        "station_id": "2386",
        "route_id": "28",
        "station_order": "9",
        "station_name": "โรงเรียนพาณิชยการเชียงใหม่",
        "station_name_en": "",
        "station_name_cn": "",
        "lat": "18.7832638156",
        "lng": "98.9932161569"
      },
      {
        "station_id": "2387",
        "route_id": "28",
        "station_order": "10",
        "station_name": "วัดพันอ้น",
        "station_name_en": "",
        "station_name_cn": "",
        "lat": "18.7879641119",
        "lng": "98.9909362793"
      },
      {
        "station_id": "2388",
        "route_id": "28",
        "station_order": "11",
        "station_name": "สี่แยกกลางเวียง",
        "station_name_en": "",
        "station_name_cn": "",
        "lat": "18.7881672552",
        "lng": "98.9880287648"
      },
      {
        "station_id": "2389",
        "route_id": "28",
        "station_order": "12",
        "station_name": "สถานีตำรวจภูธรเมืองเชียงใหม่",
        "station_name_en": "",
        "station_name_cn": "",
        "lat": "18.7883551625",
        "lng": "98.9850112796"
      },
      {
        "station_id": "2390",
        "route_id": "28",
        "station_order": "13",
        "station_name": "วัดพระสิงห์",
        "station_name_en": "",
        "station_name_cn": "",
        "lat": "18.7884897447",
        "lng": "98.9827099442"
      },
      {
        "station_id": "2391",
        "route_id": "28",
        "station_order": "14",
        "station_name": "โรงเรียนสอนคนตาบอด",
        "station_name_en": "",
        "station_name_cn": "",
        "lat": "18.7874664098",
        "lng": "98.9782628417"
      },
      {
        "station_id": "2392",
        "route_id": "28",
        "station_order": "15",
        "station_name": "สำนักงานแขวงการทาง",
        "station_name_en": "",
        "station_name_cn": "",
        "lat": "18.7888858726",
        "lng": "98.9764335752"
      },
      {
        "station_id": "2393",
        "route_id": "28",
        "station_order": "16",
        "station_name": "คณะแพทย์ศาสตร์มหาวิทยาลัยเชียงใหม่",
        "station_name_en": "",
        "station_name_cn": "",
        "lat": "18.7890166454",
        "lng": "98.9732068777"
      },
      {
        "station_id": "2394",
        "route_id": "28",
        "station_order": "17",
        "station_name": "วัดสวนดอก",
        "station_name_en": "",
        "station_name_cn": "",
        "lat": "18.7893607171",
        "lng": "98.9680731297"
      },
      {
        "station_id": "2395",
        "route_id": "28",
        "station_order": "18",
        "station_name": "ตลาดต้นพยอม",
        "station_name_en": "",
        "station_name_cn": "",
        "lat": "18.7907369967",
        "lng": "98.9613193274"
      },
      {
        "station_id": "2396",
        "route_id": "28",
        "station_order": "19",
        "station_name": "แยกไผ่ล้อม",
        "station_name_en": "",
        "station_name_cn": "",
        "lat": "18.8002182926",
        "lng": "98.9602679014"
      },
      {
        "station_id": "2397",
        "route_id": "28",
        "station_order": "20",
        "station_name": "ปันนาห้วยแก้ว",
        "station_name_en": "",
        "station_name_cn": "",
        "lat": "18.8063856726",
        "lng": "98.9584252238"
      },
      {
        "station_id": "2398",
        "route_id": "28",
        "station_order": "21",
        "station_name": "มหาวิทยาลัยเชียงใหม่",
        "station_name_en": "",
        "station_name_cn": "",
        "lat": "18.8080918819",
        "lng": "98.9551341534"
      },
      {
        "station_id": "2399",
        "route_id": "28",
        "station_order": "22",
        "station_name": "สวนรุขชาติห้วยแก้ว",
        "station_name_en": "",
        "station_name_cn": "",
        "lat": "18.8098590090",
        "lng": "98.9515802264"
      },
      {
        "station_id": "2400",
        "route_id": "28",
        "station_order": "23",
        "station_name": "สวนสัตว์เชียงใหม่",
        "station_name_en": "",
        "station_name_cn": "",
        "lat": "18.8106892477",
        "lng": "98.9482462406"
      },
      {
        "station_id": "2401",
        "route_id": "28",
        "station_order": "24",
        "station_name": "อนุสาวรีย์ครูบาศรีวิชัย",
        "station_name_en": "",
        "station_name_cn": "",
        "lat": "18.8127546707",
        "lng": "98.9463338256"
      },
      {
        "station_id": "2402",
        "route_id": "28",
        "station_order": "25",
        "station_name": "สหกรณ์โคนมเชียงใหม่",
        "station_name_en": "",
        "station_name_cn": "",
        "lat": "18.8102677815",
        "lng": "98.9505931735"
      },
      {
        "station_id": "2403",
        "route_id": "28",
        "station_order": "26",
        "station_name": "มหาวิทยาลัยเทคโนโลยีราชมงคลล้านนา",
        "station_name_en": "",
        "station_name_cn": "",
        "lat": "18.8092014165",
        "lng": "98.9532727003"
      },
      {
        "station_id": "2404",
        "route_id": "28",
        "station_order": "27",
        "station_name": "ลานนาคอนโด",
        "station_name_en": "",
        "station_name_cn": "",
        "lat": "18.8062739559",
        "lng": "98.9588838816"
      },
      {
        "station_id": "2405",
        "route_id": "28",
        "station_order": "28",
        "station_name": "อาคารล้านนา",
        "station_name_en": "",
        "station_name_cn": "",
        "lat": "18.8047962418",
        "lng": "98.9600372314"
      },
      {
        "station_id": "2406",
        "route_id": "28",
        "station_order": "29",
        "station_name": "ประเสริฐแลนด์",
        "station_name_en": "",
        "station_name_cn": "",
        "lat": "18.7977172527",
        "lng": "98.9613837004"
      },
      {
        "station_id": "2407",
        "route_id": "28",
        "station_order": "30",
        "station_name": "ตลาดต้นพยอม",
        "station_name_en": "",
        "station_name_cn": "",
        "lat": "18.7908461845",
        "lng": "98.9615097642"
      },
      {
        "station_id": "2408",
        "route_id": "28",
        "station_order": "31",
        "station_name": "คณะเภสัชศาสตร์มหาวิทยาลัยเชียงใหม่",
        "station_name_en": "",
        "station_name_cn": "",
        "lat": "18.7897085970",
        "lng": "98.9657422900"
      },
      {
        "station_id": "2409",
        "route_id": "28",
        "station_order": "32",
        "station_name": "โรงพยาบาลประสาท",
        "station_name_en": "",
        "station_name_cn": "",
        "lat": "18.7892286749",
        "lng": "98.9696140587"
      },
      {
        "station_id": "2410",
        "route_id": "28",
        "station_order": "33",
        "station_name": "โรงพยาบาลมหาราชนครเชียงใหม่",
        "station_name_en": "",
        "station_name_cn": "",
        "lat": "18.7890026794",
        "lng": "98.9748698473"
      },
      {
        "station_id": "2411",
        "route_id": "28",
        "station_order": "34",
        "station_name": "โรงพยาบาลมหาราชฯ ตึกสงฆ์",
        "station_name_en": "",
        "station_name_cn": "",
        "lat": "18.7902519991",
        "lng": "98.9778926969"
      },
      {
        "station_id": "2412",
        "route_id": "28",
        "station_order": "35",
        "station_name": "ถนนอารักษ์",
        "station_name_en": "",
        "station_name_cn": "",
        "lat": "18.7895486231",
        "lng": "98.9811274409"
      },
      {
        "station_id": "2413",
        "route_id": "28",
        "station_order": "36",
        "station_name": "สถานีตำรวจภูธรเมืองเชียงใหม่",
        "station_name_en": "",
        "station_name_cn": "",
        "lat": "18.7884034090",
        "lng": "98.9850407839"
      },
      {
        "station_id": "2414",
        "route_id": "28",
        "station_order": "37",
        "station_name": "โรงแรม M โฮเทล",
        "station_name_en": "",
        "station_name_cn": "",
        "lat": "18.7883094554",
        "lng": "98.9931464195"
      },
      {
        "station_id": "2415",
        "route_id": "28",
        "station_order": "38",
        "station_name": "โลตัสตลาดสมเพชร",
        "station_name_en": "",
        "station_name_cn": "",
        "lat": "18.7912346891",
        "lng": "98.9933502674"
      },
      {
        "station_id": "2416",
        "route_id": "28",
        "station_order": "39",
        "station_name": "วัดชมพู",
        "station_name_en": "",
        "station_name_cn": "",
        "lat": "18.7911051877",
        "lng": "98.9937365055"
      },
      {
        "station_id": "2417",
        "route_id": "28",
        "station_order": "40",
        "station_name": "ธนาคารธหารไทย สาขาช้างม่อย",
        "station_name_en": "",
        "station_name_cn": "",
        "lat": "18.7898660314",
        "lng": "98.9960217476"
      },
      {
        "station_id": "2418",
        "route_id": "28",
        "station_order": "41",
        "station_name": "สหพาณิชย์ช้างม่อย",
        "station_name_en": "",
        "station_name_cn": "",
        "lat": "18.7903916582",
        "lng": "98.9982171357"
      },
      {
        "station_id": "2419",
        "route_id": "28",
        "station_order": "42",
        "station_name": "ไปรษณีย์กาดหลวง",
        "station_name_en": "",
        "station_name_cn": "",
        "lat": "18.7883932518",
        "lng": "99.0025475621"
      },
      {
        "station_id": "2420",
        "route_id": "28",
        "station_order": "43",
        "station_name": "ธนาคารอิสลาม สาขาเจริญเมือง",
        "station_name_en": "",
        "station_name_cn": "",
        "lat": "18.7872988159",
        "lng": "99.0072655678"
      },
      {
        "station_id": "2421",
        "route_id": "28",
        "station_order": "44",
        "station_name": "บริษัทเมืองไทยลิสซิ่ง สาขาสันป่าข่อย",
        "station_name_en": "",
        "station_name_cn": "",
        "lat": "18.7862799176",
        "lng": "99.0126373619"
      },
      {
        "station_id": "2422",
        "route_id": "28",
        "station_order": "45",
        "station_name": "ศูนย์นิสสัน",
        "station_name_en": "",
        "station_name_cn": "",
        "lat": "18.7860482047",
        "lng": "99.0138007700"
      },
      {
        "station_id": "2423",
        "route_id": "28",
        "station_order": "46",
        "station_name": "สวนสุขภาพรถไฟ",
        "station_name_en": "",
        "station_name_cn": "",
        "lat": "18.7854311484",
        "lng": "99.0170234442"
      },
      {
        "station_id": "2424",
        "route_id": "28",
        "station_order": "47",
        "station_name": "สำนักงานกรมชลประธาน",
        "station_name_en": "",
        "station_name_cn": "",
        "lat": "18.7905414743",
        "lng": "99.0178361535"
      },
      {
        "station_id": "2425",
        "route_id": "28",
        "station_order": "48",
        "station_name": "สำนักงานอุตสาหกรรมป่าไม้",
        "station_name_en": "",
        "station_name_cn": "",
        "lat": "18.8016097179",
        "lng": "99.0150171518"
      },
      {
        "station_id": "2426",
        "route_id": "28",
        "station_order": "49",
        "station_name": "สถานีขนส่งอาเขต",
        "station_name_en": "",
        "station_name_cn": "",
        "lat": "18.8002030579",
        "lng": "99.0175008774"
      }
    ]
